[
  {
    "nombre": "Carraizo",
    "siteID": 50059000,
    "latitude": 18.32791,
    "longitude": -66.01628,
    "desborde": 40.80,
    "seguridad": 39.70,
    "observacion": 38.5,
    "ajuste": 37.20,
    "control": 30,
    "capacidad": 12000
  },
  {
    "nombre": "La Plata",
    "siteID": 50045000,
    "latitude": 18.343,
    "longitude": -66.23607,
    "desborde": 51.30,
    "seguridad": 47.70,
    "observacion": 44.90,
    "ajuste": 34,
    "control": 30,
    "capacidad": 26516
  },
  {
    "nombre": "Cidra",
    "siteID": 50047550,
    "latitude": 18.1969,
    "longitude": -66.14072,
    "desborde": 403.0,
    "seguridad": 401.71,
    "observacion": 400.23,
    "ajuste": 398.37,
    "control": 395.5,
    "capacidad": 4480
  },
  {
    "nombre": "Patillas",
    "siteID": 50093045,
    "latitude": 18.01774,
    "longitude": -66.0185,
    "desborde": 66,
    "seguridad": 62.18,
    "observacion": 58.82,
    "ajuste": 57,
    "control": 53.34,
    "capacidad": 9890
  },
  {
    "nombre": "Toa Vaca",
    "siteID": 50111210,
    "latitude": 18.10166,
    "longitude": -66.48902,
    "desborde": 161,
    "seguridad": 152,
    "observacion": 141.8,
    "ajuste": 132.6,
    "control": 123,
    "capacidad": 50650
  },
  {
    "nombre": "Carite",
    "siteID": 50039995,
    "latitude": 18.07524,
    "longitude": -66.10683,
    "desborde": 544,
    "seguridad": 542,
    "observacion": 539,
    "ajuste": 537,
    "control": 533,
    "capacidad": 8320
  },
  {
    "nombre": "Rio Blanco",
    "siteID": 50076800,
    "latitude": 18.22389,
    "longitude": -65.78142,
    "desborde": 28.75,
    "seguridad": 26.5,
    "observacion": 24.25,
    "ajuste": 22.5,
    "control": 20,
    "capacidad": 3795
  },
  {
    "nombre": "Caonillas",
    "siteID": 50026140,
    "latitude": 18.27654,
    "longitude": -66.65642,
    "desborde": 252,
    "seguridad": 248,
    "observacion": 244,
    "ajuste": 242,
    "control": 235,
    "capacidad": 31730
  },
  {
    "nombre": "Fajardo",
    "siteID": 50071225,
    "latitude": 18.2969,
    "longitude": -65.65858,
    "desborde": 52.50,
    "seguridad": 48.30,
    "observacion": 44.50,
    "ajuste": 40.50,
    "control": 36,
    "capacidad": 4430
  },
  {
    "nombre": "Guajataca",
    "siteID": 50010800,
    "latitude": 18.39836,
    "longitude": -66.9227,
    "desborde": 196.50,
    "seguridad": 194,
    "observacion": 190,
    "ajuste": 186,
    "control": 184,
    "capacidad": 33340
  },
  {
    "nombre": "Cerrillos",
    "siteID": 50113950,
    "latitude": 18.07703,
    "longitude": -66.57547,
    "desborde": 174.7,
    "seguridad": 160.9,
    "observacion": 152.4,
    "ajuste": 144.8,
    "control": 137.2,
    "capacidad": 42600
  }
]